timestamp,date,latitude,longitude
1636537864,"2021-11-10 09:51:04",49.244377,4.068353
1636539371,"2021-11-10 10:16:11",49.244338,4.068303
1636541866,"2021-11-10 10:57:46",49.241838,4.060448
1636541955,"2021-11-10 10:59:15",49.2419,4.060268
1636542009,"2021-11-10 11:00:09",49.241469,4.060668
1636542046,"2021-11-10 11:00:46",49.241836,4.060464
1636542520,"2021-11-10 11:08:40",49.242994,4.062424
1636543064,"2021-11-10 11:17:44",49.244394,4.068366
1636545862,"2021-11-10 12:04:22",49.244368,4.068341
1636547721,"2021-11-10 12:35:21",49.244345,4.068322
1636548988,"2021-11-10 12:56:28",49.243698,4.068101
1636549038,"2021-11-10 12:57:18",49.243152,4.067959
1636549074,"2021-11-10 12:57:54",49.242782,4.067477
1636549138,"2021-11-10 12:58:58",49.242363,4.06694
1636549171,"2021-11-10 12:59:31",49.242369,4.06744
1636549306,"2021-11-10 13:01:46",49.242672,4.067505
1636549312,"2021-11-10 13:01:52",49.242413,4.067311
1636549763,"2021-11-10 13:09:23",49.242568,4.066654
1636549793,"2021-11-10 13:09:53",49.24226,4.066092
1636550139,"2021-11-10 13:15:39",49.242369,4.06805
1636550223,"2021-11-10 13:17:03",49.243169,4.06812
1636550256,"2021-11-10 13:17:36",49.243278,4.068837
1636550290,"2021-11-10 13:18:10",49.244035,4.06793
1636550379,"2021-11-10 13:19:39",49.244332,4.068316
1636550412,"2021-11-10 13:20:12",49.239096,4.078302
1636550480,"2021-11-10 13:21:20",49.244332,4.06831
1636552919,"2021-11-10 14:01:59",49.244401,4.068372
1636553882,"2021-11-10 14:18:02",49.244383,4.068357
1636556763,"2021-11-10 15:06:03",49.244385,4.068358
1636558095,"2021-11-10 15:28:15",49.24295,4.066789
1636558139,"2021-11-10 15:28:59",49.243206,4.066605
1636558180,"2021-11-10 15:29:40",49.242775,4.066941
1636558209,"2021-11-10 15:30:09",49.243126,4.06699
1636559144,"2021-11-10 15:45:44",49.242566,4.06664
1636559167,"2021-11-10 15:46:07",49.243032,4.066804
1636559259,"2021-11-10 15:47:39",49.242571,4.06664
1636559276,"2021-11-10 15:47:56",49.242639,4.067084
1636559291,"2021-11-10 15:48:11",49.243245,4.066999
1636559381,"2021-11-10 15:49:41",49.24289,4.066072
1636559411,"2021-11-10 15:50:11",49.242202,4.065418
1636561456,"2021-11-10 16:24:16",49.259401,3.860548
1636561478,"2021-11-10 16:24:38",49.259956,3.861977
1636561496,"2021-11-10 16:24:56",49.259906,3.861523
1636561511,"2021-11-10 16:25:11",49.259579,3.860888
1636561541,"2021-11-10 16:25:41",49.259403,3.860545
1636561571,"2021-11-10 16:26:11",49.25996,3.861984
1636563373,"2021-11-10 16:56:13",49.259983,3.862003
1636563767,"2021-11-10 17:02:47",49.259389,3.86055
1636563800,"2021-11-10 17:03:20",49.259961,3.861992
1636563897,"2021-11-10 17:04:57",49.259387,3.860551
1636563930,"2021-11-10 17:05:30",49.26006,3.861995
1636564258,"2021-11-10 17:10:58",49.259391,3.860538
1636564291,"2021-11-10 17:11:31",49.25996,3.861989
1636564356,"2021-11-10 17:12:36",49.259388,3.860549
1636564390,"2021-11-10 17:13:10",49.26008,3.861983
1636564422,"2021-11-10 17:13:42",49.259387,3.860547
1636564455,"2021-11-10 17:14:15",49.259938,3.862003
1636564620,"2021-11-10 17:17:00",49.259387,3.860551
1636564654,"2021-11-10 17:17:34",49.259786,3.862218
1636564686,"2021-11-10 17:18:06",49.260006,3.86184
1636564720,"2021-11-10 17:18:40",49.259906,3.862248
1636564812,"2021-11-10 17:20:12",49.259374,3.860528
1636564843,"2021-11-10 17:20:43",49.259713,3.861462
1636564872,"2021-11-10 17:21:12",49.259374,3.860526
1636564890,"2021-11-10 17:21:30",49.260013,3.862075
1636564902,"2021-11-10 17:21:42",49.259659,3.861214
1636564933,"2021-11-10 17:22:13",49.260076,3.862521
1636564999,"2021-11-10 17:23:19",49.259964,3.861995
1636565067,"2021-11-10 17:24:27",49.259908,3.862619
1636565093,"2021-11-10 17:24:53",49.259963,3.861995
1636565131,"2021-11-10 17:25:31",49.260289,3.861756
1636565157,"2021-11-10 17:25:57",49.259962,3.861997
1636565284,"2021-11-10 17:28:04",49.260109,3.861551
1636565318,"2021-11-10 17:28:38",49.259957,3.862032
1636565350,"2021-11-10 17:29:10",49.259391,3.860538
1636565384,"2021-11-10 17:29:44",49.259962,3.861926
1636565613,"2021-11-10 17:33:33",49.259542,3.861402
1636565647,"2021-11-10 17:34:07",49.259972,3.862171
1636566128,"2021-11-10 17:42:08",49.259401,3.860553
1636566168,"2021-11-10 17:42:48",49.259856,3.862403
1636566189,"2021-11-10 17:43:09",49.259959,3.861982
1636566582,"2021-11-10 17:49:42",49.259396,3.860555
1636566615,"2021-11-10 17:50:15",49.259996,3.862117
1636566842,"2021-11-10 17:54:02",49.259397,3.860549
1636566876,"2021-11-10 17:54:36",49.260154,3.862026
1636566909,"2021-11-10 17:55:09",49.259397,3.860549
1636566939,"2021-11-10 17:55:39",49.259961,3.861987
1636567641,"2021-11-10 18:07:21",49.259368,3.860531
1636567664,"2021-11-10 18:07:44",49.260288,3.862141
1636567702,"2021-11-10 18:08:22",49.259984,3.862103
1636567865,"2021-11-10 18:11:05",49.259392,3.86054
1636567898,"2021-11-10 18:11:38",49.26004,3.862009
1636568065,"2021-11-10 18:14:25",49.259395,3.86054
1636568070,"2021-11-10 18:14:30",49.26014,3.862246
1636568096,"2021-11-10 18:14:56",49.259393,3.860543
1636568104,"2021-11-10 18:15:04",49.260039,3.86198
1636568128,"2021-11-10 18:15:28",49.259395,3.86055
1636568159,"2021-11-10 18:15:59",49.259854,3.862073
1636568192,"2021-11-10 18:16:32",49.260205,3.861868
1636568224,"2021-11-10 18:17:04",49.259387,3.860547
1636568284,"2021-11-10 18:18:04",49.25996,3.861987
1636568716,"2021-11-10 18:25:16",49.259893,3.862117
1636568736,"2021-11-10 18:25:36",49.259378,3.860535
1636568982,"2021-11-10 18:29:42",49.259943,3.862036
1636569064,"2021-11-10 18:31:04",49.259368,3.86053
1636569090,"2021-11-10 18:31:30",49.260124,3.861947
1636569125,"2021-11-10 18:32:05",49.259369,3.860526
1636569159,"2021-11-10 18:32:39",49.260016,3.862068
1636569220,"2021-11-10 18:33:40",49.259369,3.860533
1636570067,"2021-11-10 18:47:47",49.259961,3.861991
1636570118,"2021-11-10 18:48:38",49.26046,3.861985
1636570150,"2021-11-10 18:49:10",49.259386,3.86055
1636570183,"2021-11-10 18:49:43",49.260085,3.861986
1636570215,"2021-11-10 18:50:15",49.259389,3.860537
1636570248,"2021-11-10 18:50:48",49.260107,3.862053
1636570379,"2021-11-10 18:52:59",49.259392,3.860553
1636570413,"2021-11-10 18:53:33",49.260007,3.861967
1636570541,"2021-11-10 18:55:41",49.259396,3.860551
1636570570,"2021-11-10 18:56:10",49.259962,3.86199
1636573783,"2021-11-10 19:49:43",49.259387,3.860521
1636573813,"2021-11-10 19:50:13",49.259962,3.861995
1636573843,"2021-11-10 19:50:43",49.259366,3.860529
1636573873,"2021-11-10 19:51:13",49.25996,3.861985
1636574257,"2021-11-10 19:57:37",49.259365,3.860528
1636574288,"2021-11-10 19:58:08",49.259962,3.861996
1636574352,"2021-11-10 19:59:12",49.259371,3.860527
1636574364,"2021-11-10 19:59:24",49.260047,3.861815
1636574383,"2021-11-10 19:59:43",49.259366,3.860525
1636574414,"2021-11-10 20:00:14",49.259999,3.862028
1636574578,"2021-11-10 20:02:58",49.259394,3.860552
1636575033,"2021-11-10 20:10:33",49.259951,3.862192
1636575072,"2021-11-10 20:11:12",49.259399,3.860546
1636575118,"2021-11-10 20:11:58",49.259554,3.862024
1636575132,"2021-11-10 20:12:12",49.259455,3.86107
1636575165,"2021-11-10 20:12:45",49.259394,3.860539
1636575192,"2021-11-10 20:13:12",49.259962,3.861997
1636575225,"2021-11-10 20:13:45",49.259408,3.860592
1636575276,"2021-11-10 20:14:36",49.259896,3.862054
1636575359,"2021-11-10 20:15:59",49.259406,3.860551
1636575393,"2021-11-10 20:16:33",49.259889,3.861956
1636575458,"2021-11-10 20:17:38",49.2594,3.860549
1636575491,"2021-11-10 20:18:11",49.259986,3.861956
1636575623,"2021-11-10 20:20:23",49.259403,3.860555
1636575656,"2021-11-10 20:20:56",49.259954,3.861965
1636575886,"2021-11-10 20:24:46",49.259404,3.860553
1636575919,"2021-11-10 20:25:19",49.259943,3.861871
1636575983,"2021-11-10 20:26:23",49.259401,3.860556
1636576014,"2021-11-10 20:26:54",49.259956,3.861975
1636576372,"2021-11-10 20:32:52",49.259594,3.861524
1636576405,"2021-11-10 20:33:25",49.259853,3.862078
1636576434,"2021-11-10 20:33:54",49.2594,3.860553
1636576494,"2021-11-10 20:34:54",49.259959,3.86198
1636576584,"2021-11-10 20:36:24",49.259401,3.860553
1636576857,"2021-11-10 20:40:57",49.259747,3.861409
1636576887,"2021-11-10 20:41:27",49.259404,3.860555
1636576978,"2021-11-10 20:42:58",49.259627,3.861426
1636577008,"2021-11-10 20:43:28",49.259403,3.860549
1636577099,"2021-11-10 20:44:59",49.259766,3.861253
1636577129,"2021-11-10 20:45:29",49.259404,3.860555
1636577226,"2021-11-10 20:47:06",49.259881,3.862016
1636577703,"2021-11-10 20:55:03",49.2594,3.860557
1636577733,"2021-11-10 20:55:33",49.25996,3.861982
1636578067,"2021-11-10 21:01:07",49.259404,3.860555
1636578097,"2021-11-10 21:01:37",49.259957,3.861978
1636578248,"2021-11-10 21:04:08",49.259402,3.860555
1636578279,"2021-11-10 21:04:39",49.259955,3.861967
1636578581,"2021-11-10 21:09:41",49.2594,3.860544
1636578611,"2021-11-10 21:10:11",49.259958,3.861979
1636578642,"2021-11-10 21:10:42",49.259401,3.86055
1636578701,"2021-11-10 21:11:41",49.259955,3.861972
1636578731,"2021-11-10 21:12:11",49.259401,3.860546
1636578761,"2021-11-10 21:12:41",49.259959,3.861976
1636578791,"2021-11-10 21:13:11",49.259401,3.860548
1636578822,"2021-11-10 21:13:42",49.259956,3.861975
1636578912,"2021-11-10 21:15:12",49.259739,3.861503
1636578943,"2021-11-10 21:15:43",49.259401,3.860546
1636579064,"2021-11-10 21:17:44",49.259958,3.861978
1636579094,"2021-11-10 21:18:14",49.259683,3.861513
1636579124,"2021-11-10 21:18:44",49.259401,3.860548
1636579154,"2021-11-10 21:19:14",49.259959,3.861976
1636579364,"2021-11-10 21:22:44",49.259682,3.861566
1636579394,"2021-11-10 21:23:14",49.259958,3.861978
1636579425,"2021-11-10 21:23:45",49.259606,3.861533
1636579485,"2021-11-10 21:24:45",49.259961,3.861984
1636579575,"2021-11-10 21:26:15",49.259735,3.861584
1636579605,"2021-11-10 21:26:45",49.25996,3.861982
1636579756,"2021-11-10 21:29:16",49.259399,3.860555
1636579906,"2021-11-10 21:31:46",49.259957,3.861976
1636579966,"2021-11-10 21:32:46",49.25941,3.860603
1636579997,"2021-11-10 21:33:17",49.259755,3.861599
1636580091,"2021-11-10 21:34:51",49.259947,3.861936
1636580151,"2021-11-10 21:35:51",49.259404,3.860553
1636580211,"2021-11-10 21:36:51",49.25996,3.861978
1636580241,"2021-11-10 21:37:21",49.259624,3.861538
1636580362,"2021-11-10 21:39:22",49.259896,3.861856
1636580555,"2021-11-10 21:42:35",49.259707,3.861508
1636580586,"2021-11-10 21:43:06",49.25994,3.86188
1636580616,"2021-11-10 21:43:36",49.259711,3.861555
1636580646,"2021-11-10 21:44:06",49.259958,3.861975
1636580676,"2021-11-10 21:44:36",49.259587,3.861372
1636580736,"2021-11-10 21:45:36",49.259947,3.861898
1636580768,"2021-11-10 21:46:08",49.259711,3.861555
1636580798,"2021-11-10 21:46:38",49.259928,3.861873
1636580978,"2021-11-10 21:49:38",49.259722,3.861471
1636581008,"2021-11-10 21:50:08",49.259963,3.861918
1636581098,"2021-11-10 21:51:38",49.259697,3.861489
1636581128,"2021-11-10 21:52:08",49.259958,3.861979
1636581194,"2021-11-10 21:53:14",49.259397,3.860543
1636581229,"2021-11-10 21:53:49",49.259981,3.861939
1636581327,"2021-11-10 21:55:27",49.259389,3.860543
1636581357,"2021-11-10 21:55:57",49.25996,3.861988
1636581388,"2021-11-10 21:56:28",49.25939,3.860553
1636581394,"2021-11-10 21:56:34",49.260052,3.862159
1636581513,"2021-11-10 21:58:33",49.259394,3.860547
1636581549,"2021-11-10 21:59:09",49.260077,3.861982
1636581573,"2021-11-10 21:59:33",49.259388,3.860549
1636581605,"2021-11-10 22:00:05",49.259981,3.862012
1636581759,"2021-11-10 22:02:39",49.25939,3.860553
1636581792,"2021-11-10 22:03:12",49.260016,3.861996
1636582020,"2021-11-10 22:07:00",49.259373,3.8605
1636582051,"2021-11-10 22:07:31",49.259961,3.861992
1636583224,"2021-11-10 22:27:04",49.259945,3.861928
1636583284,"2021-11-10 22:28:04",49.259877,3.86173
1636583879,"2021-11-10 22:37:59",49.260146,3.861881
1636583984,"2021-11-10 22:39:44",49.259882,3.862037
1636584357,"2021-11-10 22:45:57",49.260109,3.861795
1636584486,"2021-11-10 22:48:06",49.259768,3.862246
1636584616,"2021-11-10 22:50:16",49.260003,3.861947
1636585467,"2021-11-10 23:04:27",49.259915,3.86241
1636585499,"2021-11-10 23:04:59",49.259964,3.861994
1636587525,"2021-11-10 23:38:45",49.259964,3.861993
1636588491,"2021-11-10 23:54:51",49.259964,3.861993
1636589452,"2021-11-11 00:10:52",49.259964,3.861993
1636590418,"2021-11-11 00:26:58",49.259964,3.861993
1636591384,"2021-11-11 00:43:04",49.259964,3.861993
1636597654,"2021-11-11 02:27:34",49.259964,3.861994
1636597677,"2021-11-11 02:27:57",49.260463,3.862136
1636597710,"2021-11-11 02:28:30",49.259974,3.862061
1636600360,"2021-11-11 03:12:40",49.258036,3.862246
1636600402,"2021-11-11 03:13:22",49.257724,3.862365
1636600408,"2021-11-11 03:13:28",49.257291,3.862702
1636600413,"2021-11-11 03:13:33",49.256893,3.862903
1636600426,"2021-11-11 03:13:46",49.257144,3.863201
1636600431,"2021-11-11 03:13:51",49.257496,3.863311
1636600436,"2021-11-11 03:13:56",49.257826,3.86353
1636600442,"2021-11-11 03:14:02",49.258063,3.863732
1636600447,"2021-11-11 03:14:07",49.258333,3.864034
1636600453,"2021-11-11 03:14:13",49.25874,3.864529
1636600458,"2021-11-11 03:14:18",49.259097,3.865116
1636600463,"2021-11-11 03:14:23",49.259427,3.865928
1636600469,"2021-11-11 03:14:29",49.259861,3.867016
1636600475,"2021-11-11 03:14:35",49.260467,3.868006
1636600481,"2021-11-11 03:14:41",49.261164,3.868827
1636600486,"2021-11-11 03:14:46",49.261761,3.869623
1636600491,"2021-11-11 03:14:51",49.262431,3.870393
1636600496,"2021-11-11 03:14:56",49.263131,3.871178
1636600502,"2021-11-11 03:15:02",49.264028,3.872224
1636600507,"2021-11-11 03:15:07",49.264774,3.873105
1636600513,"2021-11-11 03:15:13",49.265676,3.87412
1636600519,"2021-11-11 03:15:19",49.266579,3.87513
1636600524,"2021-11-11 03:15:24",49.267328,3.875972
1636600530,"2021-11-11 03:15:30",49.2682,3.877059
1636600536,"2021-11-11 03:15:36",49.269047,3.878156
1636600541,"2021-11-11 03:15:41",49.26974,3.87898
1636600546,"2021-11-11 03:15:46",49.270506,3.879661
1636600552,"2021-11-11 03:15:52",49.271381,3.880398
1636600557,"2021-11-11 03:15:57",49.271969,3.880923
1636600563,"2021-11-11 03:16:03",49.272673,3.881565
1636600568,"2021-11-11 03:16:08",49.273263,3.882099
1636600574,"2021-11-11 03:16:14",49.27347,3.882455
1636600580,"2021-11-11 03:16:20",49.273441,3.882883
1636600585,"2021-11-11 03:16:25",49.273359,3.883608
1636600591,"2021-11-11 03:16:31",49.273302,3.884579
1636600596,"2021-11-11 03:16:36",49.27322,3.885539
1636600602,"2021-11-11 03:16:42",49.27313,3.886835
1636600607,"2021-11-11 03:16:47",49.273032,3.887986
1636600612,"2021-11-11 03:16:52",49.272934,3.889153
1636600618,"2021-11-11 03:16:58",49.272796,3.890536
1636600623,"2021-11-11 03:17:03",49.272615,3.891713
1636600629,"2021-11-11 03:17:09",49.27238,3.893212
1636600634,"2021-11-11 03:17:14",49.272175,3.894482
1636600640,"2021-11-11 03:17:20",49.271943,3.896109
1636600645,"2021-11-11 03:17:25",49.271717,3.897588
1636600650,"2021-11-11 03:17:30",49.271476,3.899099
1636600656,"2021-11-11 03:17:36",49.271201,3.900842
1636600662,"2021-11-11 03:17:42",49.270924,3.902583
1636600667,"2021-11-11 03:17:47",49.270675,3.904147
1636600673,"2021-11-11 03:17:53",49.270373,3.906111
1636600678,"2021-11-11 03:17:58",49.27011,3.907706
1636600684,"2021-11-11 03:18:04",49.269738,3.909603
1636600689,"2021-11-11 03:18:09",49.269454,3.911221
1636600695,"2021-11-11 03:18:15",49.269126,3.913277
1636600700,"2021-11-11 03:18:20",49.26885,3.915014
1636600706,"2021-11-11 03:18:26",49.268513,3.917072
1636600711,"2021-11-11 03:18:31",49.268236,3.918816
1636600717,"2021-11-11 03:18:37",49.267882,3.920998
1636600723,"2021-11-11 03:18:43",49.267414,3.923242
1636600728,"2021-11-11 03:18:48",49.266917,3.925116
1636600734,"2021-11-11 03:18:54",49.266335,3.92735
1636600740,"2021-11-11 03:19:00",49.26575,3.929533
1636600746,"2021-11-11 03:19:06",49.265208,3.931601
1636600751,"2021-11-11 03:19:11",49.264752,3.933311
1636600757,"2021-11-11 03:19:17",49.264235,3.935271
1636600762,"2021-11-11 03:19:22",49.263808,3.936872
1636600767,"2021-11-11 03:19:27",49.263371,3.93854
1636600773,"2021-11-11 03:19:33",49.262833,3.940558
1636600778,"2021-11-11 03:19:38",49.262389,3.942235
1636600784,"2021-11-11 03:19:44",49.261905,3.944079
1636600790,"2021-11-11 03:19:50",49.261503,3.945625
1636600795,"2021-11-11 03:19:55",49.261213,3.946712
1636600801,"2021-11-11 03:20:01",49.260893,3.947865
1636600807,"2021-11-11 03:20:07",49.260621,3.94893
1636600813,"2021-11-11 03:20:13",49.260266,3.94969
1636600818,"2021-11-11 03:20:18",49.260156,3.950281
1636600824,"2021-11-11 03:20:24",49.259971,3.951406
1636600830,"2021-11-11 03:20:30",49.259606,3.952867
1636600836,"2021-11-11 03:20:36",49.259183,3.954558
1636600841,"2021-11-11 03:20:41",49.258804,3.956098
1636600846,"2021-11-11 03:20:46",49.258414,3.95768
1636600852,"2021-11-11 03:20:52",49.257927,3.959543
1636600858,"2021-11-11 03:20:58",49.257494,3.96113
1636600863,"2021-11-11 03:21:03",49.257173,3.96235
1636600869,"2021-11-11 03:21:09",49.256779,3.963803
1636600875,"2021-11-11 03:21:15",49.256374,3.965197
1636600880,"2021-11-11 03:21:20",49.256108,3.966015
1636600886,"2021-11-11 03:21:26",49.255809,3.966567
1636600892,"2021-11-11 03:21:32",49.255775,3.967409
1636600898,"2021-11-11 03:21:38",49.255477,3.968421
1636600904,"2021-11-11 03:21:44",49.255174,3.96958
1636600909,"2021-11-11 03:21:49",49.254937,3.970375
1636600914,"2021-11-11 03:21:54",49.254689,3.97087
1636600920,"2021-11-11 03:22:00",49.254967,3.971258
1636600926,"2021-11-11 03:22:06",49.255426,3.971655
1636600931,"2021-11-11 03:22:11",49.255753,3.97231
1636600937,"2021-11-11 03:22:17",49.255502,3.973239
1636600942,"2021-11-11 03:22:22",49.25493,3.973266
1636600947,"2021-11-11 03:22:27",49.254539,3.97265
1636600952,"2021-11-11 03:22:32",49.254237,3.971848
1636600958,"2021-11-11 03:22:38",49.253799,3.970562
1636600964,"2021-11-11 03:22:44",49.253378,3.969228
1636600969,"2021-11-11 03:22:49",49.253059,3.96812
1636600975,"2021-11-11 03:22:55",49.25267,3.966879
1636600981,"2021-11-11 03:23:01",49.252278,3.965625
1636600987,"2021-11-11 03:23:07",49.251892,3.964407
1636600993,"2021-11-11 03:23:13",49.251504,3.963196
1636600998,"2021-11-11 03:23:18",49.251165,3.961939
1636601004,"2021-11-11 03:23:24",49.250745,3.960301
1636601009,"2021-11-11 03:23:29",49.250404,3.958892
1636601015,"2021-11-11 03:23:35",49.25007,3.957272
1636601020,"2021-11-11 03:23:40",49.249899,3.956337
1636601026,"2021-11-11 03:23:46",49.249793,3.955839
1636601034,"2021-11-11 03:23:54",49.249705,3.955358
1636601040,"2021-11-11 03:24:00",49.249532,3.954587
1636601045,"2021-11-11 03:24:05",49.249312,3.953762
1636601051,"2021-11-11 03:24:11",49.249097,3.952537
1636601056,"2021-11-11 03:24:16",49.248944,3.951335
1636601062,"2021-11-11 03:24:22",49.248783,3.949807
1636601067,"2021-11-11 03:24:27",49.248649,3.948479
1636601073,"2021-11-11 03:24:33",49.248461,3.946787
1636601078,"2021-11-11 03:24:38",49.248302,3.945401
1636601083,"2021-11-11 03:24:43",49.248154,3.944036
1636601089,"2021-11-11 03:24:49",49.247968,3.942346
1636601095,"2021-11-11 03:24:55",49.247698,3.940566
1636601101,"2021-11-11 03:25:01",49.247358,3.938756
1636601107,"2021-11-11 03:25:07",49.246943,3.93689
1636601113,"2021-11-11 03:25:13",49.246428,3.934842
1636601119,"2021-11-11 03:25:19",49.245883,3.932738
1636601125,"2021-11-11 03:25:25",49.245361,3.930564
1636601131,"2021-11-11 03:25:31",49.24487,3.928298
1636601136,"2021-11-11 03:25:36",49.244498,3.926344
1636601141,"2021-11-11 03:25:41",49.244171,3.924335
1636601147,"2021-11-11 03:25:47",49.243842,3.921929
1636601153,"2021-11-11 03:25:53",49.243529,3.919437
1636601158,"2021-11-11 03:25:58",49.243272,3.917344
1636601163,"2021-11-11 03:26:03",49.243027,3.915257
1636601169,"2021-11-11 03:26:09",49.242756,3.912737
1636601175,"2021-11-11 03:26:15",49.242593,3.910213
1636601180,"2021-11-11 03:26:20",49.242558,3.908062
1636601186,"2021-11-11 03:26:26",49.242645,3.905466
1636601192,"2021-11-11 03:26:32",49.242825,3.902956
1636601197,"2021-11-11 03:26:37",49.243024,3.900641
1636601202,"2021-11-11 03:26:42",49.243186,3.898405
1636601207,"2021-11-11 03:26:47",49.243253,3.896141
1636601212,"2021-11-11 03:26:52",49.243204,3.893851
1636601218,"2021-11-11 03:26:58",49.242986,3.891189
1636601224,"2021-11-11 03:27:04",49.242632,3.888638
1636601229,"2021-11-11 03:27:09",49.242216,3.886588
1636601234,"2021-11-11 03:27:14",49.241717,3.88462
1636601239,"2021-11-11 03:27:19",49.241147,3.882695
1636601245,"2021-11-11 03:27:25",49.240392,3.880505
1636601251,"2021-11-11 03:27:31",49.239711,3.878534
1636601257,"2021-11-11 03:27:37",49.238979,3.876414
1636601262,"2021-11-11 03:27:42",49.238356,3.874599
1636601268,"2021-11-11 03:27:48",49.237622,3.872486
1636601274,"2021-11-11 03:27:54",49.236946,3.870459
1636601279,"2021-11-11 03:27:59",49.236372,3.868717
1636601285,"2021-11-11 03:28:05",49.235698,3.866442
1636601290,"2021-11-11 03:28:10",49.235181,3.864372
1636601296,"2021-11-11 03:28:16",49.234636,3.861786
1636601301,"2021-11-11 03:28:21",49.234261,3.859552
1636601306,"2021-11-11 03:28:26",49.233975,3.857336
1636601311,"2021-11-11 03:28:31",49.233757,3.855113
1636601317,"2021-11-11 03:28:37",49.23357,3.85259
1636601323,"2021-11-11 03:28:43",49.233398,3.849882
1636601328,"2021-11-11 03:28:48",49.233244,3.84775
1636601333,"2021-11-11 03:28:53",49.233065,3.845631
1636601337,"2021-11-11 03:28:57",49.232814,3.84351
1636601344,"2021-11-11 03:29:04",49.23243,3.84098
1636601350,"2021-11-11 03:29:10",49.231968,3.838574
1636601356,"2021-11-11 03:29:16",49.231426,3.836176
1636601362,"2021-11-11 03:29:22",49.230775,3.833779
1636601367,"2021-11-11 03:29:27",49.230193,3.831877
1636601372,"2021-11-11 03:29:32",49.229567,3.830078
1636601378,"2021-11-11 03:29:38",49.228744,3.827921
1636601384,"2021-11-11 03:29:44",49.227777,3.825746
1636601390,"2021-11-11 03:29:50",49.226717,3.823633
1636601395,"2021-11-11 03:29:55",49.225769,3.821924
1636601401,"2021-11-11 03:30:01",49.224581,3.819914
1636601407,"2021-11-11 03:30:07",49.22331,3.817924
1636601413,"2021-11-11 03:30:13",49.222047,3.815885
1636601419,"2021-11-11 03:30:19",49.220853,3.813777
1636601424,"2021-11-11 03:30:24",49.219943,3.811992
1636601429,"2021-11-11 03:30:29",49.219056,3.810158
1636601435,"2021-11-11 03:30:35",49.218067,3.807857
1636601440,"2021-11-11 03:30:40",49.217322,3.805942
1636601446,"2021-11-11 03:30:46",49.21643,3.803562
1636601451,"2021-11-11 03:30:51",49.21574,3.801737
1636601457,"2021-11-11 03:30:57",49.214964,3.799687
1636601463,"2021-11-11 03:31:03",49.214151,3.797594
1636601469,"2021-11-11 03:31:09",49.213321,3.795392
1636601474,"2021-11-11 03:31:14",49.212647,3.793494
1636601480,"2021-11-11 03:31:20",49.211911,3.791151
1636601485,"2021-11-11 03:31:25",49.21134,3.789218
1636601491,"2021-11-11 03:31:31",49.210729,3.786839
1636601497,"2021-11-11 03:31:37",49.210155,3.784436
1636601502,"2021-11-11 03:31:42",49.209669,3.782379
1636601507,"2021-11-11 03:31:47",49.209165,3.780319
1636601513,"2021-11-11 03:31:53",49.208478,3.777919
1636601519,"2021-11-11 03:31:59",49.20773,3.775604
1636601525,"2021-11-11 03:32:05",49.206939,3.773469
1636601530,"2021-11-11 03:32:10",49.206194,3.771711
1636601535,"2021-11-11 03:32:15",49.205384,3.769986
1636601540,"2021-11-11 03:32:20",49.204549,3.768392
1636601546,"2021-11-11 03:32:26",49.203495,3.766601
1636601551,"2021-11-11 03:32:31",49.202564,3.765128
1636601556,"2021-11-11 03:32:36",49.201569,3.763676
1636601562,"2021-11-11 03:32:42",49.200361,3.762065
1636601568,"2021-11-11 03:32:48",49.198996,3.760486
1636601574,"2021-11-11 03:32:54",49.197591,3.759037
1636601579,"2021-11-11 03:32:59",49.196321,3.757905
1636601585,"2021-11-11 03:33:05",49.194755,3.7567
1636601590,"2021-11-11 03:33:10",49.193399,3.755757
1636601595,"2021-11-11 03:33:15",49.191982,3.754878
1636601600,"2021-11-11 03:33:20",49.190544,3.754111
1636601606,"2021-11-11 03:33:26",49.188943,3.753313
1636601612,"2021-11-11 03:33:32",49.187413,3.752581
1636601618,"2021-11-11 03:33:38",49.185897,3.751859
1636601624,"2021-11-11 03:33:44",49.184365,3.751127
1636601629,"2021-11-11 03:33:49",49.183075,3.750515
1636601634,"2021-11-11 03:33:54",49.181771,3.749897
1636601640,"2021-11-11 03:34:00",49.180196,3.749105
1636601646,"2021-11-11 03:34:06",49.178627,3.748204
1636601652,"2021-11-11 03:34:12",49.177083,3.747168
1636601657,"2021-11-11 03:34:17",49.175785,3.746281
1636601662,"2021-11-11 03:34:22",49.174515,3.745311
1636601667,"2021-11-11 03:34:27",49.173274,3.744284
1636601673,"2021-11-11 03:34:33",49.171779,3.742959
1636601678,"2021-11-11 03:34:38",49.170585,3.741724
1636601683,"2021-11-11 03:34:43",49.169441,3.740486
1636601689,"2021-11-11 03:34:49",49.16822,3.739065
1636601694,"2021-11-11 03:34:54",49.167187,3.737792
1636601699,"2021-11-11 03:34:59",49.1662,3.736508
1636601705,"2021-11-11 03:35:05",49.165028,3.734865
1636601710,"2021-11-11 03:35:10",49.16407,3.733429
1636601716,"2021-11-11 03:35:16",49.162928,3.731605
1636601722,"2021-11-11 03:35:22",49.161908,3.729822
1636601728,"2021-11-11 03:35:28",49.160967,3.728058
1636601734,"2021-11-11 03:35:34",49.160064,3.726299
1636601739,"2021-11-11 03:35:39",49.159337,3.72481
1636601745,"2021-11-11 03:35:45",49.158514,3.722992
1636601751,"2021-11-11 03:35:51",49.157767,3.721284
1636601757,"2021-11-11 03:35:57",49.157117,3.719545
1636601762,"2021-11-11 03:36:02",49.156571,3.71808
1636601768,"2021-11-11 03:36:08",49.155913,3.716257
1636601774,"2021-11-11 03:36:14",49.155264,3.714364
1636601780,"2021-11-11 03:36:20",49.154627,3.712442
1636601785,"2021-11-11 03:36:25",49.154133,3.71082
1636601790,"2021-11-11 03:36:30",49.153658,3.709167
1636601795,"2021-11-11 03:36:35",49.153194,3.707466
1636601801,"2021-11-11 03:36:41",49.152655,3.705337
1636601807,"2021-11-11 03:36:47",49.152131,3.703071
1636601812,"2021-11-11 03:36:52",49.151705,3.701039
1636601818,"2021-11-11 03:36:58",49.151252,3.69859
1636601824,"2021-11-11 03:37:04",49.150851,3.695998
1636601830,"2021-11-11 03:37:10",49.150462,3.693252
1636601834,"2021-11-11 03:37:14",49.150176,3.690914
1636601841,"2021-11-11 03:37:21",49.149926,3.688258
1636601846,"2021-11-11 03:37:26",49.149774,3.686118
1636601851,"2021-11-11 03:37:31",49.149649,3.684013
1636601857,"2021-11-11 03:37:37",49.14955,3.68148
1636601863,"2021-11-11 03:37:43",49.149482,3.678911
1636601869,"2021-11-11 03:37:49",49.149439,3.676297
1636601875,"2021-11-11 03:37:55",49.149392,3.673662
1636601880,"2021-11-11 03:38:00",49.149352,3.671535
1636601886,"2021-11-11 03:38:06",49.149303,3.669016
1636601891,"2021-11-11 03:38:11",49.14926,3.66689
1636601896,"2021-11-11 03:38:16",49.149203,3.66471
1636601901,"2021-11-11 03:38:21",49.149107,3.662447
1636601907,"2021-11-11 03:38:27",49.14895,3.659942
1636601912,"2021-11-11 03:38:32",49.148781,3.657894
1636601917,"2021-11-11 03:38:37",49.148566,3.655755
1636601923,"2021-11-11 03:38:43",49.148243,3.653098
1636601929,"2021-11-11 03:38:49",49.147881,3.650399
1636601934,"2021-11-11 03:38:54",49.147521,3.648069
1636601939,"2021-11-11 03:38:59",49.147102,3.645751
1636601944,"2021-11-11 03:39:04",49.146648,3.643383
1636601950,"2021-11-11 03:39:10",49.146037,3.640559
1636601956,"2021-11-11 03:39:16",49.145382,3.637861
1636601962,"2021-11-11 03:39:22",49.1447,3.635274
1636601967,"2021-11-11 03:39:27",49.144072,3.633125
1636601973,"2021-11-11 03:39:33",49.143257,3.630532
1636601978,"2021-11-11 03:39:38",49.142519,3.628372
1636601984,"2021-11-11 03:39:44",49.141591,3.625859
1636601989,"2021-11-11 03:39:49",49.14076,3.623762
1636601994,"2021-11-11 03:39:54",49.139896,3.621699
1636602000,"2021-11-11 03:40:00",49.138835,3.619245
1636602006,"2021-11-11 03:40:06",49.137725,3.616837
1636602011,"2021-11-11 03:40:11",49.136803,3.614816
1636602017,"2021-11-11 03:40:17",49.135694,3.612362
1636602022,"2021-11-11 03:40:22",49.13478,3.610324
1636602027,"2021-11-11 03:40:27",49.133888,3.608258
1636602033,"2021-11-11 03:40:33",49.132883,3.605729
1636602038,"2021-11-11 03:40:38",49.132131,3.603581
1636602044,"2021-11-11 03:40:44",49.131314,3.600968
1636602049,"2021-11-11 03:40:49",49.130701,3.598737
1636602055,"2021-11-11 03:40:55",49.130019,3.595951
1636602061,"2021-11-11 03:41:01",49.129444,3.59308
1636602066,"2021-11-11 03:41:06",49.129015,3.590663
1636602071,"2021-11-11 03:41:11",49.128686,3.588208
1636602077,"2021-11-11 03:41:17",49.128409,3.585255
1636602082,"2021-11-11 03:41:22",49.12825,3.582768
1636602087,"2021-11-11 03:41:27",49.128155,3.580283
1636602092,"2021-11-11 03:41:32",49.128141,3.577811
1636602098,"2021-11-11 03:41:38",49.12817,3.574843
1636602103,"2021-11-11 03:41:43",49.128212,3.572532
1636602108,"2021-11-11 03:41:48",49.128253,3.570315
1636602114,"2021-11-11 03:41:54",49.128304,3.567596
1636602120,"2021-11-11 03:42:00",49.128343,3.564805
1636602125,"2021-11-11 03:42:05",49.128375,3.562448
1636602131,"2021-11-11 03:42:11",49.128391,3.559649
1636602136,"2021-11-11 03:42:16",49.128365,3.557249
1636602141,"2021-11-11 03:42:21",49.128296,3.55478
1636602147,"2021-11-11 03:42:27",49.12814,3.551719
1636602152,"2021-11-11 03:42:32",49.12796,3.549164
1636602158,"2021-11-11 03:42:38",49.127694,3.546178
1636602164,"2021-11-11 03:42:44",49.127349,3.543213
1636602170,"2021-11-11 03:42:50",49.126948,3.540293
1636602176,"2021-11-11 03:42:56",49.126496,3.537445
1636602182,"2021-11-11 03:43:02",49.125971,3.534587
1636602188,"2021-11-11 03:43:08",49.125403,3.531818
1636602194,"2021-11-11 03:43:14",49.124779,3.529108
1636602199,"2021-11-11 03:43:19",49.124191,3.526836
1636602204,"2021-11-11 03:43:24",49.123599,3.524753
1636602210,"2021-11-11 03:43:30",49.12296,3.522704
1636602216,"2021-11-11 03:43:36",49.122276,3.520699
1636602222,"2021-11-11 03:43:42",49.121518,3.51866
1636602228,"2021-11-11 03:43:48",49.120677,3.516542
1636602233,"2021-11-11 03:43:53",49.119881,3.514746
1636602239,"2021-11-11 03:43:59",49.118784,3.512457
1636602245,"2021-11-11 03:44:05",49.117671,3.510154
1636602250,"2021-11-11 03:44:10",49.116693,3.508213
1636602256,"2021-11-11 03:44:16",49.115532,3.505818
1636602262,"2021-11-11 03:44:22",49.114447,3.503346
1636602268,"2021-11-11 03:44:28",49.113507,3.500745
1636602274,"2021-11-11 03:44:34",49.112665,3.498051
1636602279,"2021-11-11 03:44:39",49.11207,3.495774
1636602285,"2021-11-11 03:44:45",49.111456,3.492985
1636602290,"2021-11-11 03:44:50",49.111018,3.490588
1636602295,"2021-11-11 03:44:55",49.110637,3.488162
1636602301,"2021-11-11 03:45:01",49.110231,3.48526
1636602306,"2021-11-11 03:45:06",49.109907,3.482822
1636602312,"2021-11-11 03:45:12",49.109477,3.479942
1636602317,"2021-11-11 03:45:17",49.109083,3.477558
1636602323,"2021-11-11 03:45:23",49.108632,3.475124
1636602329,"2021-11-11 03:45:29",49.108157,3.472844
1636602335,"2021-11-11 03:45:35",49.107636,3.470511
1636602340,"2021-11-11 03:45:40",49.10715,3.468519
1636602346,"2021-11-11 03:45:46",49.106515,3.466076
1636602351,"2021-11-11 03:45:51",49.105978,3.464175
1636602356,"2021-11-11 03:45:56",49.105446,3.46232
1636602362,"2021-11-11 03:46:02",49.104721,3.460041
1636602367,"2021-11-11 03:46:07",49.104026,3.458025
1636602373,"2021-11-11 03:46:13",49.103085,3.455514
1636602379,"2021-11-11 03:46:19",49.102068,3.452923
1636602385,"2021-11-11 03:46:25",49.101034,3.450516
1636602391,"2021-11-11 03:46:31",49.099995,3.448107
1636602397,"2021-11-11 03:46:37",49.098965,3.445673
1636602402,"2021-11-11 03:46:42",49.098178,3.443739
1636602408,"2021-11-11 03:46:48",49.097355,3.441577
1636602413,"2021-11-11 03:46:53",49.096737,3.439878
1636602419,"2021-11-11 03:46:59",49.096043,3.437902
1636602424,"2021-11-11 03:47:04",49.095467,3.436246
1636602430,"2021-11-11 03:47:10",49.09478,3.434244
1636602435,"2021-11-11 03:47:15",49.094162,3.432536
1636602440,"2021-11-11 03:47:20",49.093502,3.430786
1636602446,"2021-11-11 03:47:26",49.092654,3.42865
1636602451,"2021-11-11 03:47:31",49.091902,3.426864
1636602456,"2021-11-11 03:47:36",49.091106,3.425072
1636602462,"2021-11-11 03:47:42",49.090071,3.422832
1636602468,"2021-11-11 03:47:48",49.088951,3.420509
1636602473,"2021-11-11 03:47:53",49.087984,3.418549
1636602478,"2021-11-11 03:47:58",49.08701,3.416591
1636602484,"2021-11-11 03:48:04",49.085835,3.414272
1636602490,"2021-11-11 03:48:10",49.084647,3.411861
1636602496,"2021-11-11 03:48:16",49.083563,3.409507
1636602502,"2021-11-11 03:48:22",49.082576,3.407165
1636602507,"2021-11-11 03:48:27",49.081795,3.405163
1636602512,"2021-11-11 03:48:32",49.081071,3.403089
1636602518,"2021-11-11 03:48:38",49.080307,3.400577
1636602523,"2021-11-11 03:48:43",49.079741,3.398443
1636602528,"2021-11-11 03:48:48",49.079247,3.396231
1636602533,"2021-11-11 03:48:53",49.0788,3.39401
1636602538,"2021-11-11 03:48:58",49.078457,3.391821
1636602544,"2021-11-11 03:49:04",49.078151,3.389248
1636602549,"2021-11-11 03:49:09",49.077973,3.387091
1636602554,"2021-11-11 03:49:14",49.077848,3.384884
1636602560,"2021-11-11 03:49:20",49.07778,3.382277
1636602566,"2021-11-11 03:49:26",49.077792,3.379529
1636602571,"2021-11-11 03:49:31",49.077827,3.377371
1636602576,"2021-11-11 03:49:36",49.077846,3.375156
1636602582,"2021-11-11 03:49:42",49.077845,3.3726
1636602588,"2021-11-11 03:49:48",49.077799,3.369982
1636602594,"2021-11-11 03:49:54",49.077637,3.367152
1636602600,"2021-11-11 03:50:00",49.077377,3.364273
1636602605,"2021-11-11 03:50:05",49.077091,3.361962
1636602610,"2021-11-11 03:50:10",49.07671,3.359749
1636602616,"2021-11-11 03:50:16",49.076199,3.357329
1636602622,"2021-11-11 03:50:22",49.075612,3.354941
1636602627,"2021-11-11 03:50:27",49.075038,3.352961
1636602633,"2021-11-11 03:50:33",49.074261,3.350569
1636602638,"2021-11-11 03:50:38",49.073524,3.348617
1636602643,"2021-11-11 03:50:43",49.072737,3.346705
1636602649,"2021-11-11 03:50:49",49.071671,3.344478
1636602655,"2021-11-11 03:50:55",49.070454,3.342267
1636602660,"2021-11-11 03:51:00",49.069396,3.340582
1636602666,"2021-11-11 03:51:06",49.067994,3.338562
1636602672,"2021-11-11 03:51:12",49.066508,3.336594
1636602677,"2021-11-11 03:51:17",49.065257,3.334961
1636602682,"2021-11-11 03:51:22",49.064001,3.333345
1636602688,"2021-11-11 03:51:28",49.062547,3.331446
1636602693,"2021-11-11 03:51:33",49.061267,3.32978
1636602698,"2021-11-11 03:51:38",49.060016,3.328174
1636602704,"2021-11-11 03:51:44",49.05853,3.326183
1636602710,"2021-11-11 03:51:50",49.057103,3.324099
1636602716,"2021-11-11 03:51:56",49.055774,3.321861
1636602722,"2021-11-11 03:52:02",49.054544,3.319501
1636602727,"2021-11-11 03:52:07",49.0536,3.317424
1636602732,"2021-11-11 03:52:12",49.052749,3.315263
1636602738,"2021-11-11 03:52:18",49.051824,3.312593
1636602744,"2021-11-11 03:52:24",49.051033,3.309844
1636602749,"2021-11-11 03:52:29",49.050467,3.307513
1636602755,"2021-11-11 03:52:35",49.049879,3.304624
1636602761,"2021-11-11 03:52:41",49.049379,3.301709
1636602767,"2021-11-11 03:52:47",49.048921,3.298789
1636602772,"2021-11-11 03:52:52",49.048566,3.296346
1636602777,"2021-11-11 03:52:57",49.048249,3.293876
1636602783,"2021-11-11 03:53:03",49.047906,3.290899
1636602789,"2021-11-11 03:53:09",49.047607,3.287907
1636602795,"2021-11-11 03:53:15",49.047362,3.284917
1636602801,"2021-11-11 03:53:21",49.047152,3.281931
1636602806,"2021-11-11 03:53:26",49.047006,3.279453
1636602812,"2021-11-11 03:53:32",49.046872,3.276497
1636602817,"2021-11-11 03:53:37",49.046774,3.274032
1636602823,"2021-11-11 03:53:43",49.046676,3.270919
1636602829,"2021-11-11 03:53:49",49.04647,3.267926
1636602834,"2021-11-11 03:53:54",49.046197,3.265468
1636602840,"2021-11-11 03:54:00",49.04568,3.262566
1636602846,"2021-11-11 03:54:06",49.04498,3.259741
1636602852,"2021-11-11 03:54:12",49.044179,3.256997
1636602857,"2021-11-11 03:54:17",49.043472,3.254703
1636602862,"2021-11-11 03:54:22",49.042782,3.252415
1636602868,"2021-11-11 03:54:28",49.042024,3.249646
1636602873,"2021-11-11 03:54:33",49.041461,3.247298
1636602879,"2021-11-11 03:54:39",49.040865,3.244419
1636602885,"2021-11-11 03:54:45",49.040377,3.24149
1636602891,"2021-11-11 03:54:51",49.040028,3.238537
1636602897,"2021-11-11 03:54:57",49.039773,3.235543
1636602903,"2021-11-11 03:55:03",49.039651,3.23251
1636602909,"2021-11-11 03:55:09",49.039629,3.229493
1636602914,"2021-11-11 03:55:14",49.039687,3.226981
1636602920,"2021-11-11 03:55:20",49.039877,3.223976
1636602926,"2021-11-11 03:55:26",49.040124,3.220974
1636602931,"2021-11-11 03:55:31",49.040352,3.21846
1636602936,"2021-11-11 03:55:36",49.040568,3.216058
1636602942,"2021-11-11 03:55:42",49.040756,3.212964
1636602948,"2021-11-11 03:55:48",49.040794,3.209975
1636602953,"2021-11-11 03:55:53",49.040729,3.207462
1636602959,"2021-11-11 03:55:59",49.040528,3.204468
1636602964,"2021-11-11 03:56:04",49.040253,3.201994
1636602970,"2021-11-11 03:56:10",49.039795,3.19906
1636602975,"2021-11-11 03:56:15",49.039308,3.196645
1636602980,"2021-11-11 03:56:20",49.038742,3.194282
1636602986,"2021-11-11 03:56:26",49.037933,3.191496
1636602991,"2021-11-11 03:56:31",49.037168,3.189258
1636602996,"2021-11-11 03:56:36",49.036317,3.187071
1636603002,"2021-11-11 03:56:42",49.035246,3.184518
1636603008,"2021-11-11 03:56:48",49.034188,3.181965
1636603013,"2021-11-11 03:56:53",49.033384,3.179764
1636603019,"2021-11-11 03:56:59",49.032539,3.177062
1636603025,"2021-11-11 03:57:05",49.031691,3.174348
1636603030,"2021-11-11 03:57:10",49.030918,3.172133
1636603036,"2021-11-11 03:57:16",49.029757,3.169669
1636603041,"2021-11-11 03:57:21",49.028643,3.167905
1636603046,"2021-11-11 03:57:26",49.027451,3.16636
1636603052,"2021-11-11 03:57:32",49.025881,3.164779
1636603058,"2021-11-11 03:57:38",49.024232,3.16348
1636603064,"2021-11-11 03:57:44",49.022595,3.162238
1636603070,"2021-11-11 03:57:50",49.020955,3.160935
1636603076,"2021-11-11 03:57:56",49.019323,3.159518
1636603081,"2021-11-11 03:58:01",49.01804,3.158246
1636603087,"2021-11-11 03:58:07",49.016547,3.156567
1636603093,"2021-11-11 03:58:13",49.015163,3.154716
1636603098,"2021-11-11 03:58:18",49.014124,3.15319
1636603104,"2021-11-11 03:58:24",49.01302,3.151385
1636603110,"2021-11-11 03:58:30",49.012055,3.149646
1636603115,"2021-11-11 03:58:35",49.011385,3.148268
1636603121,"2021-11-11 03:58:41",49.010617,3.147052
1636603126,"2021-11-11 03:58:46",49.010154,3.146405
1636603131,"2021-11-11 03:58:51",49.009999,3.146016
1636603136,"2021-11-11 03:58:56",49.009814,3.145687
1636603142,"2021-11-11 03:59:02",49.0094,3.14486
1636603148,"2021-11-11 03:59:08",49.008845,3.143504
1636603153,"2021-11-11 03:59:13",49.008187,3.142244
1636603159,"2021-11-11 03:59:19",49.007229,3.140436
1636603164,"2021-11-11 03:59:24",49.006391,3.138841
1636603170,"2021-11-11 03:59:30",49.005287,3.136729
1636603175,"2021-11-11 03:59:35",49.004325,3.134808
1636603181,"2021-11-11 03:59:41",49.003164,3.132384
1636603186,"2021-11-11 03:59:46",49.002257,3.130277
1636603191,"2021-11-11 03:59:51",49.001378,3.128073
1636603196,"2021-11-11 03:59:56",49.000549,3.125831
1636603202,"2021-11-11 04:00:02",48.999649,3.123284
1636603207,"2021-11-11 04:00:07",48.998917,3.121137
1636603212,"2021-11-11 04:00:12",48.998191,3.119
1636603218,"2021-11-11 04:00:18",48.997311,3.116385
1636603224,"2021-11-11 04:00:24",48.996417,3.113766
1636603230,"2021-11-11 04:00:30",48.995458,3.111174
1636603236,"2021-11-11 04:00:36",48.994422,3.108659
1636603241,"2021-11-11 04:00:41",48.993504,3.1066
1636603247,"2021-11-11 04:00:47",48.992407,3.104139
1636603253,"2021-11-11 04:00:53",48.991304,3.101673
1636603258,"2021-11-11 04:00:58",48.99039,3.099621
1636603264,"2021-11-11 04:01:04",48.989352,3.097123
1636603269,"2021-11-11 04:01:09",48.988566,3.094969
1636603275,"2021-11-11 04:01:15",48.987681,3.092316
1636603281,"2021-11-11 04:01:21",48.986805,3.089669
1636603286,"2021-11-11 04:01:26",48.986072,3.087458
1636603292,"2021-11-11 04:01:32",48.985115,3.084871
1636603298,"2021-11-11 04:01:38",48.984046,3.082371
1636603303,"2021-11-11 04:01:43",48.983076,3.080367
1636603309,"2021-11-11 04:01:49",48.981804,3.078095
1636603315,"2021-11-11 04:01:55",48.980497,3.076076
1636603321,"2021-11-11 04:02:01",48.97908,3.07413
1636603327,"2021-11-11 04:02:07",48.977614,3.072336
1636603332,"2021-11-11 04:02:12",48.976392,3.070806
1636603337,"2021-11-11 04:02:17",48.975142,3.069291
1636603343,"2021-11-11 04:02:23",48.97369,3.067379
1636603349,"2021-11-11 04:02:29",48.972342,3.065403
1636603354,"2021-11-11 04:02:34",48.971309,3.063686
1636603359,"2021-11-11 04:02:39",48.970336,3.061997
1636603364,"2021-11-11 04:02:44",48.969388,3.060368
1636603369,"2021-11-11 04:02:49",48.96842,3.05888
1636603375,"2021-11-11 04:02:55",48.967202,3.057221
1636603380,"2021-11-11 04:03:00",48.966206,3.056071
1636603386,"2021-11-11 04:03:06",48.965524,3.055214
1636603392,"2021-11-11 04:03:12",48.964997,3.054525
1636603398,"2021-11-11 04:03:18",48.96472,3.054007
1636603404,"2021-11-11 04:03:24",48.964362,3.053684
1636603409,"2021-11-11 04:03:29",48.964115,3.053511
1636603419,"2021-11-11 04:03:39",48.963857,3.053291
1636603426,"2021-11-11 04:03:46",48.96359,3.053018
1636603431,"2021-11-11 04:03:51",48.963329,3.052826
1636603629,"2021-11-11 04:07:09",48.963155,3.052494
1636603638,"2021-11-11 04:07:18",48.96287,3.052319
1636603643,"2021-11-11 04:07:23",48.962502,3.052531
1636603648,"2021-11-11 04:07:28",48.961988,3.0526
1636603654,"2021-11-11 04:07:34",48.961101,3.052117
1636603660,"2021-11-11 04:07:40",48.959939,3.051374
1636603666,"2021-11-11 04:07:46",48.958591,3.050494
1636603672,"2021-11-11 04:07:52",48.957159,3.049392
1636603677,"2021-11-11 04:07:57",48.956088,3.048281
1636603683,"2021-11-11 04:08:03",48.954944,3.04682
1636603688,"2021-11-11 04:08:08",48.954008,3.045601
1636603694,"2021-11-11 04:08:14",48.952883,3.044125
1636603699,"2021-11-11 04:08:19",48.951879,3.042957
1636603705,"2021-11-11 04:08:25",48.950561,3.041638
1636603710,"2021-11-11 04:08:30",48.949418,3.040611
1636603716,"2021-11-11 04:08:36",48.94795,3.039465
1636603722,"2021-11-11 04:08:42",48.946433,3.038373
1636603728,"2021-11-11 04:08:48",48.944933,3.037258
1636603733,"2021-11-11 04:08:53",48.943695,3.036226
1636603738,"2021-11-11 04:08:58",48.942511,3.034998
1636603744,"2021-11-11 04:09:04",48.941189,3.033366
1636603749,"2021-11-11 04:09:09",48.94008,3.031977
1636603754,"2021-11-11 04:09:14",48.938877,3.030721
1636603759,"2021-11-11 04:09:19",48.937604,3.029651
1636603765,"2021-11-11 04:09:25",48.936016,3.028416
1636603770,"2021-11-11 04:09:30",48.934683,3.027344
1636603776,"2021-11-11 04:09:36",48.933089,3.025886
1636603782,"2021-11-11 04:09:42",48.93155,3.024113
1636603788,"2021-11-11 04:09:48",48.930116,3.022199
1636603793,"2021-11-11 04:09:53",48.929039,3.020524
1636603799,"2021-11-11 04:09:59",48.927857,3.018285
1636603805,"2021-11-11 04:10:05",48.926845,3.016018
1636603810,"2021-11-11 04:10:10",48.926084,3.014039
1636603816,"2021-11-11 04:10:16",48.925265,3.011405
1636603821,"2021-11-11 04:10:21",48.92463,3.009175
1636603827,"2021-11-11 04:10:27",48.923863,3.006432
1636603832,"2021-11-11 04:10:32",48.923237,3.004208
1636603838,"2021-11-11 04:10:38",48.922452,3.00143
1636603843,"2021-11-11 04:10:43",48.921792,2.99913
1636603849,"2021-11-11 04:10:49",48.921004,2.996371
1636603854,"2021-11-11 04:10:54",48.920346,2.994064
1636603860,"2021-11-11 04:11:00",48.919569,2.991302
1636603866,"2021-11-11 04:11:06",48.918765,2.988541
1636603872,"2021-11-11 04:11:12",48.917875,2.985842
1636603878,"2021-11-11 04:11:18",48.916903,2.983221
1636603884,"2021-11-11 04:11:24",48.915914,2.980616
1636603890,"2021-11-11 04:11:30",48.914959,2.977971
1636603896,"2021-11-11 04:11:36",48.91406,2.975295
1636603901,"2021-11-11 04:11:41",48.913413,2.972993
1636603906,"2021-11-11 04:11:46",48.912834,2.970652
1636603911,"2021-11-11 04:11:51",48.912336,2.968261
1636603917,"2021-11-11 04:11:57",48.911873,2.965333
1636603923,"2021-11-11 04:12:03",48.911454,2.962386
1636603929,"2021-11-11 04:12:09",48.911123,2.959407
1636603934,"2021-11-11 04:12:14",48.91085,2.956932
1636603940,"2021-11-11 04:12:20",48.910482,2.953987
1636603946,"2021-11-11 04:12:26",48.909991,2.951075
1636603951,"2021-11-11 04:12:31",48.909498,2.948679
1636603957,"2021-11-11 04:12:37",48.908783,2.945934
1636603963,"2021-11-11 04:12:43",48.908021,2.943373
1636603969,"2021-11-11 04:12:49",48.907155,2.940875
1636603974,"2021-11-11 04:12:54",48.906341,2.93884
1636603980,"2021-11-11 04:13:00",48.905329,2.93659
1636603986,"2021-11-11 04:13:06",48.90414,2.93412
1636603991,"2021-11-11 04:13:11",48.903189,2.932141
1636603997,"2021-11-11 04:13:17",48.902132,2.929631
1636604003,"2021-11-11 04:13:23",48.90124,2.926975
1636604008,"2021-11-11 04:13:28",48.900619,2.924679
1636604013,"2021-11-11 04:13:33",48.900053,2.922362
1636604019,"2021-11-11 04:13:39",48.899365,2.919627
1636604024,"2021-11-11 04:13:44",48.898647,2.917421
1636604029,"2021-11-11 04:13:49",48.897859,2.915277
1636604035,"2021-11-11 04:13:55",48.896785,2.912802
1636604040,"2021-11-11 04:14:00",48.895775,2.910843
1636604045,"2021-11-11 04:14:05",48.89468,2.908985
1636604050,"2021-11-11 04:14:10",48.893503,2.907254
1636604055,"2021-11-11 04:14:15",48.892293,2.905572
1636604061,"2021-11-11 04:14:21",48.890861,2.903535
1636604066,"2021-11-11 04:14:26",48.889723,2.901778
1636604072,"2021-11-11 04:14:32",48.888419,2.899597
1636604078,"2021-11-11 04:14:38",48.887162,2.897454
1636604083,"2021-11-11 04:14:43",48.886144,2.8957
1636604089,"2021-11-11 04:14:49",48.884926,2.893634
1636604095,"2021-11-11 04:14:55",48.883698,2.891558
1636604101,"2021-11-11 04:15:01",48.882493,2.889434
1636604107,"2021-11-11 04:15:07",48.881289,2.887352
1636604113,"2021-11-11 04:15:13",48.880138,2.885227
1636604119,"2021-11-11 04:15:19",48.879049,2.883017
1636604125,"2021-11-11 04:15:25",48.878034,2.880757
1636604131,"2021-11-11 04:15:31",48.877081,2.878429
1636604136,"2021-11-11 04:15:36",48.876345,2.876418
1636604142,"2021-11-11 04:15:42",48.875521,2.873914
1636604147,"2021-11-11 04:15:47",48.874845,2.871753
1636604153,"2021-11-11 04:15:53",48.874017,2.869064
1636604158,"2021-11-11 04:15:58",48.873309,2.866849
1636604164,"2021-11-11 04:16:04",48.872447,2.864287
1636604169,"2021-11-11 04:16:09",48.871699,2.862241
1636604175,"2021-11-11 04:16:15",48.870803,2.860013
1636604180,"2021-11-11 04:16:20",48.870005,2.858218
1636604186,"2021-11-11 04:16:26",48.868986,2.856165
1636604192,"2021-11-11 04:16:32",48.867932,2.854211
1636604198,"2021-11-11 04:16:38",48.866781,2.852299
1636604204,"2021-11-11 04:16:44",48.86553,2.850427
1636604209,"2021-11-11 04:16:49",48.864421,2.848898
1636604215,"2021-11-11 04:16:55",48.863047,2.847139
1636604221,"2021-11-11 04:17:01",48.861584,2.845454
1636604227,"2021-11-11 04:17:07",48.860067,2.84389
1636604232,"2021-11-11 04:17:12",48.858792,2.842675
1636604238,"2021-11-11 04:17:18",48.857344,2.84141
1636604243,"2021-11-11 04:17:23",48.856311,2.840512
1636604248,"2021-11-11 04:17:28",48.855449,2.839757
1636604254,"2021-11-11 04:17:34",48.854636,2.838999
1636604260,"2021-11-11 04:17:40",48.854104,2.838499
1636604266,"2021-11-11 04:17:46",48.853848,2.838276
1636604272,"2021-11-11 04:17:52",48.853496,2.837949
1636604277,"2021-11-11 04:17:57",48.852873,2.837359
1636604282,"2021-11-11 04:18:02",48.852112,2.836622
1636604287,"2021-11-11 04:18:07",48.851242,2.835916
1636604292,"2021-11-11 04:18:12",48.850376,2.835103
1636604298,"2021-11-11 04:18:18",48.849191,2.833896
1636604303,"2021-11-11 04:18:23",48.84815,2.832756
1636604309,"2021-11-11 04:18:29",48.846856,2.831208
1636604315,"2021-11-11 04:18:35",48.845582,2.829531
1636604321,"2021-11-11 04:18:41",48.84434,2.827763
1636604327,"2021-11-11 04:18:47",48.843163,2.825892
1636604332,"2021-11-11 04:18:52",48.842201,2.824235
1636604337,"2021-11-11 04:18:57",48.84125,2.822474
1636604343,"2021-11-11 04:19:03",48.84013,2.82017
1636604349,"2021-11-11 04:19:09",48.839068,2.817803
1636604354,"2021-11-11 04:19:14",48.838226,2.815728
1636604359,"2021-11-11 04:19:19",48.837459,2.813607
1636604365,"2021-11-11 04:19:25",48.836612,2.811006
1636604370,"2021-11-11 04:19:30",48.835977,2.808786
1636604375,"2021-11-11 04:19:35",48.8354,2.806519
1636604381,"2021-11-11 04:19:41",48.834795,2.803749
1636604386,"2021-11-11 04:19:46",48.834401,2.801404
1636604392,"2021-11-11 04:19:52",48.833987,2.798545
1636604398,"2021-11-11 04:19:58",48.833644,2.795692
1636604404,"2021-11-11 04:20:04",48.833377,2.792808
1636604409,"2021-11-11 04:20:09",48.833182,2.790388
1636604415,"2021-11-11 04:20:15",48.832958,2.787506
1636604421,"2021-11-11 04:20:21",48.832743,2.784609
1636604427,"2021-11-11 04:20:27",48.832528,2.781715
1636604433,"2021-11-11 04:20:33",48.832307,2.778823
1636604439,"2021-11-11 04:20:39",48.832092,2.775937
1636604444,"2021-11-11 04:20:44",48.831908,2.773517
1636604449,"2021-11-11 04:20:49",48.831722,2.771067
1636604454,"2021-11-11 04:20:54",48.831529,2.768611
1636604460,"2021-11-11 04:21:00",48.831283,2.765664
1636604466,"2021-11-11 04:21:06",48.831059,2.762842
1636604471,"2021-11-11 04:21:11",48.830873,2.760289
1636604477,"2021-11-11 04:21:17",48.830657,2.757349
1636604482,"2021-11-11 04:21:22",48.830476,2.754909
1636604487,"2021-11-11 04:21:27",48.830293,2.752456
1636604493,"2021-11-11 04:21:33",48.830068,2.749517
1636604499,"2021-11-11 04:21:39",48.829842,2.746583
1636604504,"2021-11-11 04:21:44",48.829656,2.744121
1636604510,"2021-11-11 04:21:50",48.829463,2.741173
1636604515,"2021-11-11 04:21:55",48.829284,2.738719
1636604521,"2021-11-11 04:22:01",48.829086,2.735783
1636604526,"2021-11-11 04:22:06",48.828966,2.733316
1636604532,"2021-11-11 04:22:12",48.828882,2.730348
1636604537,"2021-11-11 04:22:17",48.828881,2.727892
1636604543,"2021-11-11 04:22:23",48.828957,2.724951
1636604548,"2021-11-11 04:22:28",48.829091,2.722498
1636604553,"2021-11-11 04:22:33",48.829243,2.720024
1636604559,"2021-11-11 04:22:39",48.829425,2.717063
1636604564,"2021-11-11 04:22:44",48.829553,2.714593
1636604569,"2021-11-11 04:22:49",48.829682,2.712136
1636604575,"2021-11-11 04:22:55",48.829868,2.70918
1636604580,"2021-11-11 04:23:00",48.830016,2.706727
1636604586,"2021-11-11 04:23:06",48.830182,2.703784
1636604591,"2021-11-11 04:23:11",48.830327,2.701344
1636604596,"2021-11-11 04:23:16",48.830478,2.698884
1636604601,"2021-11-11 04:23:21",48.830637,2.696403
1636604607,"2021-11-11 04:23:27",48.830812,2.693499
1636604612,"2021-11-11 04:23:32",48.830949,2.691101
1636604617,"2021-11-11 04:23:37",48.831094,2.688827
1636604622,"2021-11-11 04:23:42",48.831213,2.686609
1636604628,"2021-11-11 04:23:48",48.831366,2.683988
1636604634,"2021-11-11 04:23:54",48.831505,2.681413
1636604640,"2021-11-11 04:24:00",48.831658,2.678853
1636604646,"2021-11-11 04:24:06",48.831821,2.676268
1636604652,"2021-11-11 04:24:12",48.83197,2.673786
1636604657,"2021-11-11 04:24:17",48.832102,2.671729
1636604663,"2021-11-11 04:24:23",48.83228,2.669309
1636604669,"2021-11-11 04:24:29",48.832413,2.666957
1636604674,"2021-11-11 04:24:34",48.832517,2.664859
1636604680,"2021-11-11 04:24:40",48.832568,2.662327
1636604685,"2021-11-11 04:24:45",48.83255,2.66016
1636604691,"2021-11-11 04:24:51",48.832509,2.65767
1636604696,"2021-11-11 04:24:56",48.832447,2.655545
1636604702,"2021-11-11 04:25:02",48.832304,2.653043
1636604707,"2021-11-11 04:25:07",48.832153,2.650946
1636604713,"2021-11-11 04:25:13",48.831941,2.648398
1636604719,"2021-11-11 04:25:19",48.831755,2.645772
1636604725,"2021-11-11 04:25:25",48.831558,2.643251
1636604730,"2021-11-11 04:25:30",48.831395,2.641262
1636604736,"2021-11-11 04:25:36",48.831211,2.63887
1636604741,"2021-11-11 04:25:41",48.831045,2.636878
1636604746,"2021-11-11 04:25:46",48.830883,2.634962
1636604752,"2021-11-11 04:25:52",48.830694,2.632535
1636604758,"2021-11-11 04:25:58",48.83046,2.630142
1636604764,"2021-11-11 04:26:04",48.830269,2.627732
1636604770,"2021-11-11 04:26:10",48.830113,2.625302
1636604776,"2021-11-11 04:26:16",48.83001,2.622851
1636604781,"2021-11-11 04:26:21",48.829967,2.62079
1636604786,"2021-11-11 04:26:26",48.829979,2.618727
1636604791,"2021-11-11 04:26:31",48.830031,2.616665
1636604797,"2021-11-11 04:26:37",48.830166,2.614137
1636604803,"2021-11-11 04:26:43",48.830376,2.611572
1636604809,"2021-11-11 04:26:49",48.830672,2.609037
1636604815,"2021-11-11 04:26:55",48.830998,2.606584
1636604820,"2021-11-11 04:27:00",48.831332,2.604573
1636604825,"2021-11-11 04:27:05",48.831683,2.602574
1636604831,"2021-11-11 04:27:11",48.832133,2.600123
1636604837,"2021-11-11 04:27:17",48.832605,2.597703
1636604842,"2021-11-11 04:27:22",48.832997,2.595697
1636604847,"2021-11-11 04:27:27",48.833406,2.593707
1636604852,"2021-11-11 04:27:32",48.8338,2.591692
1636604858,"2021-11-11 04:27:38",48.834189,2.589236
1636604863,"2021-11-11 04:27:43",48.834452,2.587143
1636604869,"2021-11-11 04:27:49",48.834701,2.584709
1636604875,"2021-11-11 04:27:55",48.834897,2.582066
1636604880,"2021-11-11 04:28:00",48.835013,2.579951
1636604886,"2021-11-11 04:28:06",48.835147,2.577414
1636604892,"2021-11-11 04:28:12",48.83528,2.574865
1636604898,"2021-11-11 04:28:18",48.83541,2.572302
1636604904,"2021-11-11 04:28:24",48.835541,2.56977
1636604910,"2021-11-11 04:28:30",48.835674,2.56722
1636604915,"2021-11-11 04:28:35",48.835785,2.565088
1636604921,"2021-11-11 04:28:41",48.835911,2.56254
1636604927,"2021-11-11 04:28:47",48.836051,2.56
1636604932,"2021-11-11 04:28:52",48.836164,2.557882
1636604938,"2021-11-11 04:28:58",48.836294,2.55533
1636604944,"2021-11-11 04:29:04",48.836427,2.552791
1636604949,"2021-11-11 04:29:09",48.836542,2.550683
1636604955,"2021-11-11 04:29:15",48.836675,2.548135
1636604960,"2021-11-11 04:29:20",48.83677,2.546016
1636604965,"2021-11-11 04:29:25",48.836801,2.543899
1636604971,"2021-11-11 04:29:31",48.836451,2.541422
1636604976,"2021-11-11 04:29:36",48.83578,2.539565
1636604982,"2021-11-11 04:29:42",48.834858,2.537442
1636604987,"2021-11-11 04:29:47",48.834024,2.53571
1636604992,"2021-11-11 04:29:52",48.833165,2.534079
1636604997,"2021-11-11 04:29:57",48.832265,2.532512
1636605002,"2021-11-11 04:30:02",48.831352,2.531104
1636605008,"2021-11-11 04:30:08",48.830198,2.529417
1636605014,"2021-11-11 04:30:14",48.828972,2.52778
1636605020,"2021-11-11 04:30:20",48.827789,2.526036
1636605026,"2021-11-11 04:30:26",48.826997,2.52388
1636605031,"2021-11-11 04:30:31",48.8266,2.521897
1636605037,"2021-11-11 04:30:37",48.826517,2.519411
1636605043,"2021-11-11 04:30:43",48.826657,2.516945
1636605056,"2021-11-11 04:30:56",48.826851,2.512742
1636605074,"2021-11-11 04:31:14",48.827772,2.506493
1636605079,"2021-11-11 04:31:19",48.828057,2.504795
1636605084,"2021-11-11 04:31:24",48.828363,2.503122
1636605090,"2021-11-11 04:31:30",48.828885,2.501295
1636605096,"2021-11-11 04:31:36",48.829406,2.499357
1636605101,"2021-11-11 04:31:41",48.829842,2.497772
1636605106,"2021-11-11 04:31:46",48.830201,2.496129
1636605112,"2021-11-11 04:31:52",48.830441,2.494108
1636605117,"2021-11-11 04:31:57",48.830509,2.492389
1636605123,"2021-11-11 04:32:03",48.830445,2.490331
1636605128,"2021-11-11 04:32:08",48.830302,2.488622
1636605133,"2021-11-11 04:32:13",48.830088,2.486831
1636605139,"2021-11-11 04:32:19",48.829802,2.484584
1636605145,"2021-11-11 04:32:25",48.829514,2.482593
1636605151,"2021-11-11 04:32:31",48.829232,2.480649
1636605157,"2021-11-11 04:32:37",48.828945,2.478624
1636605163,"2021-11-11 04:32:43",48.828671,2.476597
1636605169,"2021-11-11 04:32:49",48.828389,2.474585
1636605174,"2021-11-11 04:32:54",48.828139,2.472901
1636605180,"2021-11-11 04:33:00",48.827823,2.470889
1636605186,"2021-11-11 04:33:06",48.827406,2.468902
1636605192,"2021-11-11 04:33:12",48.826827,2.466984
1636605197,"2021-11-11 04:33:17",48.82625,2.465452
1636605203,"2021-11-11 04:33:23",48.825336,2.463904
1636605209,"2021-11-11 04:33:29",48.824148,2.463094
1636605214,"2021-11-11 04:33:34",48.823008,2.462798
1636605219,"2021-11-11 04:33:39",48.821916,2.462409
1636605224,"2021-11-11 04:33:44",48.820973,2.461451
1636605230,"2021-11-11 04:33:50",48.820055,2.459919
1636605236,"2021-11-11 04:33:56",48.819282,2.45827
1636605241,"2021-11-11 04:34:01",48.818594,2.456905
1636605247,"2021-11-11 04:34:07",48.817761,2.455281
1636605252,"2021-11-11 04:34:12",48.817105,2.453939
1636605257,"2021-11-11 04:34:17",48.816657,2.452522
1636605262,"2021-11-11 04:34:22",48.81662,2.450897
1636605268,"2021-11-11 04:34:28",48.816791,2.448783
1636605273,"2021-11-11 04:34:33",48.816917,2.447175
1636605279,"2021-11-11 04:34:39",48.817084,2.445232
1636605284,"2021-11-11 04:34:44",48.817219,2.443548
1636605290,"2021-11-11 04:34:50",48.817365,2.441488
1636605295,"2021-11-11 04:34:55",48.817463,2.43979
1636605300,"2021-11-11 04:35:00",48.817527,2.438059
1636605306,"2021-11-11 04:35:06",48.817538,2.435878
1636605312,"2021-11-11 04:35:12",48.817487,2.433727
1636605318,"2021-11-11 04:35:18",48.817438,2.431684
1636605323,"2021-11-11 04:35:23",48.817421,2.429919
1636605329,"2021-11-11 04:35:29",48.817393,2.427814
1636605335,"2021-11-11 04:35:35",48.817349,2.425705
1636605341,"2021-11-11 04:35:41",48.817436,2.423612
1636605347,"2021-11-11 04:35:47",48.817629,2.421524
1636605352,"2021-11-11 04:35:52",48.817643,2.419749
1636605358,"2021-11-11 04:35:58",48.817664,2.417711
1636605363,"2021-11-11 04:36:03",48.817673,2.415965
1636605369,"2021-11-11 04:36:09",48.81776,2.413841
1636605375,"2021-11-11 04:36:15",48.818081,2.411791
1636605381,"2021-11-11 04:36:21",48.818562,2.409813
1636605386,"2021-11-11 04:36:26",48.818969,2.40818
1636605392,"2021-11-11 04:36:32",48.819422,2.406194
1636605397,"2021-11-11 04:36:37",48.819828,2.404528
1636605403,"2021-11-11 04:36:43",48.820353,2.402599
1636605409,"2021-11-11 04:36:49",48.820954,2.400693
1636605415,"2021-11-11 04:36:55",48.821631,2.398838
1636605421,"2021-11-11 04:37:01",48.822441,2.397144
1636605426,"2021-11-11 04:37:06",48.82322,2.395863
1636605431,"2021-11-11 04:37:11",48.824012,2.394704
1636605437,"2021-11-11 04:37:17",48.824969,2.393343
1636605442,"2021-11-11 04:37:22",48.825792,2.392445
1636605448,"2021-11-11 04:37:28",48.826552,2.391824
1636605453,"2021-11-11 04:37:33",48.827206,2.391916
1636605460,"2021-11-11 04:37:40",48.827951,2.391981
1636605466,"2021-11-11 04:37:46",48.827998,2.39069
1636605471,"2021-11-11 04:37:51",48.827503,2.390332
1636605477,"2021-11-11 04:37:57",48.826993,2.389904
1636605482,"2021-11-11 04:38:02",48.826698,2.389063
1636605487,"2021-11-11 04:38:07",48.826323,2.388025
1636605493,"2021-11-11 04:38:13",48.825769,2.386413
1636605499,"2021-11-11 04:38:19",48.825125,2.3848
1636605504,"2021-11-11 04:38:24",48.824472,2.383589
1636605509,"2021-11-11 04:38:29",48.823805,2.382529
1636605515,"2021-11-11 04:38:35",48.823101,2.381357
1636605521,"2021-11-11 04:38:41",48.822382,2.380167
1636605527,"2021-11-11 04:38:47",48.821666,2.378978
1636605532,"2021-11-11 04:38:52",48.821181,2.377891
1636605537,"2021-11-11 04:38:57",48.820797,2.37668
1636605543,"2021-11-11 04:39:03",48.820372,2.37522
1636605549,"2021-11-11 04:39:09",48.81991,2.373892
1636605554,"2021-11-11 04:39:14",48.81955,2.37274
1636605560,"2021-11-11 04:39:20",48.819054,2.371147
1636605565,"2021-11-11 04:39:25",48.818619,2.370002
1636605571,"2021-11-11 04:39:31",48.818143,2.368656
1636605576,"2021-11-11 04:39:36",48.817734,2.367442
1636605582,"2021-11-11 04:39:42",48.817208,2.365898
1636605588,"2021-11-11 04:39:48",48.816616,2.36459
1636605593,"2021-11-11 04:39:53",48.816194,2.363435
1636605599,"2021-11-11 04:39:59",48.816118,2.361782
1636605605,"2021-11-11 04:40:05",48.816247,2.359989
1636605610,"2021-11-11 04:40:10",48.816339,2.358414
1636605616,"2021-11-11 04:40:16",48.81652,2.356608
1636605622,"2021-11-11 04:40:22",48.817145,2.355139
1636605627,"2021-11-11 04:40:27",48.817743,2.354075
1636605633,"2021-11-11 04:40:33",48.81807,2.352504
1636605639,"2021-11-11 04:40:39",48.817932,2.350895
1636605645,"2021-11-11 04:40:45",48.817494,2.349448
1636605651,"2021-11-11 04:40:51",48.816931,2.348124
1636605657,"2021-11-11 04:40:57",48.816491,2.346805
1636605663,"2021-11-11 04:41:03",48.816444,2.345283
1636605668,"2021-11-11 04:41:08",48.816502,2.344022
1636605674,"2021-11-11 04:41:14",48.816591,2.342403
1636605680,"2021-11-11 04:41:20",48.816702,2.340724
1636605685,"2021-11-11 04:41:25",48.816783,2.339281
1636605690,"2021-11-11 04:41:30",48.816837,2.338013
1636605696,"2021-11-11 04:41:36",48.816847,2.33643
1636605701,"2021-11-11 04:41:41",48.81714,2.335123
1636605707,"2021-11-11 04:41:47",48.817883,2.333995
1636605712,"2021-11-11 04:41:52",48.818494,2.333032
1636605718,"2021-11-11 04:41:58",48.818894,2.331458
1636605723,"2021-11-11 04:42:03",48.819165,2.33014
1636605728,"2021-11-11 04:42:08",48.819435,2.328848
1636605734,"2021-11-11 04:42:14",48.819765,2.327314
1636605740,"2021-11-11 04:42:20",48.820099,2.325756
1636605745,"2021-11-11 04:42:25",48.82037,2.324489
